[
  {
    "id": "1",
    "name": "ТС 1",
    "category": "Грузовой",
    "driver": "Иванов",
    "phone": "+1234567890",
    "latitude": 67.78825,
    "longitude": 122.4324
  },
  {
    "id": "2",
    "name": "ТС 2",
    "category": "Пассажирский",
    "driver": "Петров",
    "phone": "+9876543210",
    "latitude": 65.78825,
    "longitude": 111.4324
  },
  {
    "id": "3",
    "name": "ТС 3",
    "category": "Спецтранспорт",
    "driver": "Сидоров",
    "phone": "+1234556750",
    "latitude": 37.78825,
    "longitude": 122.4324
  },
  {
    "id": "4",
    "name": "ТС 4",
    "category": "Пассажирский",
    "driver": "Волков",
    "phone": "+8876543210",
    "latitude": 53.78825,
    "longitude": 126.4324
  },
  {
    "id": "5",
    "name": "ТС 5",
    "category": "Грузовой",
    "driver": "Жданов",
    "phone": "+1254566890",
    "latitude": 39.78825,
    "longitude": 112.4324
  },
  {
    "id": "6",
    "name": "ТС 6",
    "category": "Пассажирский",
    "driver": "Ильин",
    "phone": "+9476543230",
    "latitude": 45.78825,
    "longitude": 138.4324
  },
  {
    "id": "7",
    "name": "ТС 7",
    "category": "Грузовой",
    "driver": "Синицын",
    "phone": "+1235557890",
    "latitude": 40.78825,
    "longitude": 125.4324
  },
  {
    "id": "8",
    "name": "ТС 8",
    "category": "Спецтранспорт",
    "driver": "Калмыков",
    "phone": "+2276543410",
    "latitude": 63.78825,
    "longitude": 128.4324
  },
  {
    "id": "9",
    "name": "ТС 9",
    "category": "Грузовой",
    "driver": "Колесов",
    "phone": "+1234666690",
    "latitude": 47.78825,
    "longitude": 111.4324
  },
  {
    "id": "10",
    "name": "ТС 10",
    "category": "Пассажирский",
    "driver": "Рыжов",
    "phone": "+5576543210",
    "latitude": 58.78825,
    "longitude": 112.4324
  }
]